[
    {
        "name": "London, UK",
        "lat": 51.5081289,
        "lng": -0.128005
    },
    {
        "name": "Leeds, West Yorkshire, UK",
        "lat": 53.801279,
        "lng": -1.548567
    },
    {
        "name": "Exeter, UK",
        "lat": 50.7184,
        "lng": -3.5339
    },
    {
        "name": "Bradford, West Yorkshire, UK",
        "lat": 53.795984,
        "lng": -1.759398
    },    
    {
        "name": "Edinburgh, Midlothian, UK",
        "lat": 55.953252,
        "lng": -3.188267
    },
    {
        "name": "Huddersfield, UK",
        "lat": 53.5933432,
        "lng": -1.8009509
    },
    {
        "name": "Belfast, UK",
        "lat": 54.59744329999999,
        "lng": -5.9340683
    },
    {
        "name": "Shipley, UK",
        "lat": 53.8359,
        "lng": -1.7770
    },
    {
        "name": "Plymouth, UK",
        "lat": 50.3719165,
        "lng": -4.1360198
    },
    {
        "name": "Aberdeen, UK",
        "lat": 57.149717,
        "lng": -2.094278
    },
    {
        "name": "Halifax, UK",
        "lat": 53.7420418,
        "lng": -1.995269
    },
    {
        "name": "York, UK",
        "lat": 53.9622908,
        "lng": -1.0818995
    },
    {
        "name": "Bath, UK",
        "lat": 51.36362930000001,
        "lng": -2.4399987
    },
    {
        "name": "Bournemouth, UK",
        "lat": 50.719164,
        "lng": -1.880769
    },
    {
        "name": "Brighton, Brighton and Hove, UK",
        "lat": 50.842941,
        "lng": -0.131312
    },
    {
        "name": "Blackpool, UK",
        "lat": 53.8212725,
        "lng": -3.0554531
    },
    {
        "name": "Birmingham, West Midlands, UK",
        "lat": 52.48624299999999,
        "lng": -1.890401
    },
    {
        "name": "Sheffield, South Yorkshire, UK",
        "lat": 53.38112899999999,
        "lng": -1.470085
    },
    {
        "name": "Bristol, UK",
        "lat": 51.454513,
        "lng": -2.58791
    },
    {
        "name": "Wakefield, West Yorkshire, UK",
        "lat": 53.683298,
        "lng": -1.505924
    },
    {
        "name": "Cardiff, UK",
        "lat": 51.48158100000001,
        "lng": -3.17909
    },
    {
        "name": "Leicester, UK",
        "lat": 52.6368778,
        "lng": -1.1397592
    },
    {
        "name": "Newcastle, Tyne and Wear, UK",
        "lat": 54.978252,
        "lng": -1.61778
    },
    {
        "name": "Hull, Kingston Upon Hull, UK",
        "lat": 53.7456709,
        "lng": -0.3367413
    },
    {
        "name": "Swansea, UK",
        "lat": 51.62144,
        "lng": -3.943645999999999
    },
    {
        "name": "Harrogate, UK",
        "lat": 53.9921,
        "lng": -1.5418
    },
    {
        "name": "Grange over Sands, UK",
        "lat": 54.190,
        "lng": -2.915
    },
    {
        "name": "Penzance, UK",
        "lat": 50.1188,
        "lng": -5.5376
    },
    {
        "name": "Skipton, UK",
        "lat": 53.9628,
        "lng": -2.0163
    },
    {
        "name": "Burnley, UK",
        "lat": 53.7893,
        "lng": -2.2405
    },
    {
        "name": "Morecambe, UK",
        "lat": 54.0742,
        "lng": -2.8650
    },
    {
        "name": "Shrewsbury, UK",
        "lat": 52.7073,
        "lng": -2.7553
    },
    {
        "name": "Norwich, UK",
        "lat": 52.6309,
        "lng": 1.2974
    },
    {
        "name": "Southend, UK",
        "lat": 51.5459269,
        "lng": 0.7077123
    },
    {
        "name": "Ilfracombe, UK",
        "lat": "51.2052",
        "lng": "4.1268"
    }
]